timestamp,elapsed_s,driver_state,alert_level,drowsiness,drowsiness_confidence,distraction,distraction_confidence,latency_ms,yaw,pitch,roll
2026-06-30T12:01:00.131,1.764,safe,0,non_drowsy,0.9861,unknown,0.0,974.5,,,
2026-06-30T12:01:00.400,2.746,distracted,1,non_drowsy,0.6257,distracted_left,0.9,259.6,,,
2026-06-30T12:01:00.547,3.015,distracted,1,non_drowsy,0.8482,distracted_left,0.9,138.6,,,
2026-06-30T12:01:00.735,3.215,distracted,1,non_drowsy,0.8966,distracted_left,0.9,126.5,,,
2026-06-30T12:01:00.965,3.415,distracted,1,non_drowsy,0.633,distracted_left,0.9,156.6,,,
2026-06-30T12:01:01.150,3.615,distracted,1,non_drowsy,0.5681,distracted_left,0.9,141.4,,,
2026-06-30T12:01:01.345,3.819,distracted,1,non_drowsy,0.7167,distracted_left,0.9,132.4,,,
2026-06-30T12:01:01.528,4.02,distracted,1,non_drowsy,0.7804,distracted_left,0.9,115.0,,,
2026-06-30T12:01:01.754,4.225,distracted,1,non_drowsy,0.5233,distracted_left,0.9,135.6,,,
2026-06-30T12:01:01.946,4.428,distracted,1,non_drowsy,0.5565,distracted_left,0.9,124.6,,,
2026-06-30T12:01:02.244,4.717,distracted,1,non_drowsy,0.6252,distracted_left,0.9,134.2,,,
2026-06-30T12:01:02.488,4.921,distracted,1,non_drowsy,0.7852,distracted_left,0.9,171.4,,,
2026-06-30T12:01:02.991,5.348,distracted,1,non_drowsy,0.6773,distracted_left,0.9,246.1,,,
2026-06-30T12:01:03.153,5.604,distracted,1,non_drowsy,0.7858,distracted_left,0.9,153.4,,,
2026-06-30T12:01:03.323,5.766,distracted,1,non_drowsy,0.6713,distracted_left,0.9,162.9,,,
2026-06-30T12:01:03.458,5.935,distracted,1,non_drowsy,0.5381,distracted_left,0.9,130.8,,,
2026-06-30T12:01:03.589,6.07,distracted,1,non_drowsy,0.7113,distracted_left,0.9,126.1,,,
2026-06-30T12:01:03.726,6.202,distracted,1,non_drowsy,0.5512,distracted_left,0.9,131.8,,,
2026-06-30T12:01:03.867,6.338,distracted,1,non_drowsy,0.5361,distracted_left,0.9,135.6,,,
2026-06-30T12:01:04.000,6.483,distracted,1,non_drowsy,0.7626,distracted_left,0.9,123.9,,,
2026-06-30T12:01:04.163,6.614,distracted,1,non_drowsy,0.8171,distracted_left,0.9,155.4,,,
2026-06-30T12:01:04.367,6.776,distracted,1,non_drowsy,0.7245,distracted_left,0.9,196.5,,,
2026-06-30T12:01:04.558,6.982,distracted,1,non_drowsy,0.7769,distracted_left,0.9,183.2,,,
2026-06-30T12:01:04.711,7.17,distracted,1,non_drowsy,0.8056,distracted_left,0.9,148.3,,,
2026-06-30T12:01:04.893,7.326,distracted,1,non_drowsy,0.9342,distracted_left,0.9,175.0,,,
2026-06-30T12:01:05.044,7.505,distracted,1,non_drowsy,0.7643,distracted_left,0.9,145.4,,,
2026-06-30T12:01:05.196,7.658,distracted,1,non_drowsy,0.9051,distracted_left,0.9,144.7,,,
2026-06-30T12:01:05.358,7.809,distracted,1,non_drowsy,0.7807,distracted_left,0.9,155.2,,,
2026-06-30T12:01:05.495,7.97,distracted,1,non_drowsy,0.9367,distracted_left,0.9,132.3,,,
2026-06-30T12:01:05.626,8.107,distracted,1,non_drowsy,0.7636,distracted_left,0.9,125.6,,,
2026-06-30T12:01:05.765,8.238,distracted,1,non_drowsy,0.8887,distracted_left,0.9,134.1,,,
2026-06-30T12:01:05.925,8.38,distracted,1,non_drowsy,0.9383,distracted_left,0.9,149.2,,,
2026-06-30T12:01:06.403,8.752,distracted,1,non_drowsy,0.934,distracted_left,0.9,252.3,,,
2026-06-30T12:01:06.600,9.018,distracted,1,non_drowsy,0.8508,distracted_left,0.9,188.1,,,
2026-06-30T12:01:06.758,9.215,distracted,1,non_drowsy,0.8265,distracted_left,0.9,150.7,,,
2026-06-30T12:01:06.918,9.37,distracted,1,non_drowsy,0.8961,distracted_left,0.9,153.4,,,
2026-06-30T12:01:07.070,9.533,distracted,1,non_drowsy,0.564,distracted_left,0.9,143.2,,,
2026-06-30T12:01:07.206,9.683,distracted,1,non_drowsy,0.7846,distracted_left,0.9,129.4,,,
2026-06-30T12:01:07.361,9.819,distracted,1,non_drowsy,0.8405,distracted_left,0.9,149.2,,,
2026-06-30T12:01:07.543,9.974,distracted,1,non_drowsy,0.6912,distracted_left,0.9,175.1,,,
2026-06-30T12:01:07.739,10.154,distracted,1,non_drowsy,0.7984,distracted_left,0.9,188.0,,,
2026-06-30T12:01:08.113,10.378,distracted,1,non_drowsy,0.7991,distracted_left,0.9,341.3,,,
2026-06-30T12:01:08.265,10.725,distracted,1,non_drowsy,0.957,distracted_left,0.9,146.0,,,
2026-06-30T12:01:08.421,10.88,distracted,1,non_drowsy,0.94,distracted_left,0.9,146.7,,,
2026-06-30T12:01:08.572,11.034,distracted,1,non_drowsy,0.9217,distracted_left,0.9,143.5,,,
2026-06-30T12:01:08.714,11.185,distracted,1,non_drowsy,0.8849,distracted_left,0.9,135.6,,,
2026-06-30T12:01:08.901,11.331,distracted,1,non_drowsy,0.8736,distracted_left,0.9,175.8,,,
2026-06-30T12:01:09.039,11.515,distracted,1,non_drowsy,0.8431,distracted_left,0.9,130.0,,,
2026-06-30T12:01:09.180,11.651,distracted,1,non_drowsy,0.9772,distracted_left,0.9,135.3,,,
2026-06-30T12:01:09.325,11.795,distracted,1,non_drowsy,0.9855,distracted_left,0.9,136.2,,,
2026-06-30T12:01:09.491,11.939,distracted,1,non_drowsy,0.9436,distracted_left,0.9,158.3,,,
2026-06-30T12:01:09.629,12.103,distracted,1,non_drowsy,0.8935,distracted_left,0.9,132.2,,,
2026-06-30T12:01:09.894,12.338,distracted,1,non_drowsy,0.7481,distracted_left,0.9,162.2,,,
2026-06-30T12:01:10.032,12.509,distracted,1,non_drowsy,0.7029,distracted_left,0.9,129.8,,,
2026-06-30T12:01:10.170,12.645,distracted,1,non_drowsy,0.7113,distracted_left,0.9,131.1,,,
2026-06-30T12:01:10.319,12.782,distracted,1,non_drowsy,0.6359,distracted_left,0.9,143.1,,,
2026-06-30T12:01:10.452,12.932,distracted,1,non_drowsy,0.7187,distracted_left,0.9,125.6,,,
2026-06-30T12:01:10.598,13.065,distracted,1,non_drowsy,0.7249,distracted_left,0.9,139.3,,,
2026-06-30T12:01:10.757,13.214,distracted,1,non_drowsy,0.7801,distracted_left,0.9,149.6,,,
2026-06-30T12:01:10.915,13.37,distracted,1,non_drowsy,0.7373,distracted_left,0.9,151.3,,,
2026-06-30T12:01:11.113,13.533,distracted,1,non_drowsy,0.8033,distracted_left,0.9,186.0,,,
2026-06-30T12:01:11.328,13.726,distracted,1,non_drowsy,0.8312,distracted_left,0.9,207.6,,,
2026-06-30T12:01:11.516,13.941,distracted,1,non_drowsy,0.6697,distracted_left,0.9,181.8,,,
